Time,Roll,Pitch,Heading,Batt Temp Left,Batt Temp Right,Batt Temp Down,Batt Temp Box,Batt Temp CubeSat,Temperature,Pressure,Humidity,GpsAltitude,Latitude,Longitude,Speed,NumSatellites,Year,Month,Day,Hour,Minute,Second,Camera Info,Camera Flag,Intensity,SNR
1,3.25,-2.31,2.44,26.37,26.37,26.25,26.5,27.25,29.17,1017.19,48.79,0.0,0.0,0.0,0.0,0,2023,9,12,9,9,29,49,1.0,-49.0,9.5
2,3.25,-2.31,2.44,26.37,26.37,26.25,26.5,27.25,29.17,1017.19,48.79,0.0,0.0,0.0,0.0,0,2023,9,12,9,9,29,49,1.0,-49.0,9.5
3,3.25,-2.31,2.44,26.37,26.37,26.25,26.5,27.25,29.17,1017.19,48.75,0.0,0.0,0.0,0.0,0,2023,9,12,9,9,33,49,1.0,-51.0,8.0
4,3.25,-2.31,2.44,26.37,26.37,26.25,26.5,27.25,29.17,1017.19,48.75,0.0,0.0,0.0,0.0,0,2023,9,12,9,9,33,49,1.0,-51.0,8.0
5,3.25,-2.31,2.44,26.37,26.25,26.25,26.5,27.25,29.18,1017.17,48.75,0.0,0.0,0.0,0.0,0,2023,9,12,9,9,38,49,1.0,-51.0,8.0
6,3.25,-2.31,2.44,26.37,26.37,26.25,26.5,27.25,29.17,1017.2,48.75,0.0,0.0,0.0,0.0,0,2023,9,12,9,9,42,49,1.0,-51.0,8.25
7,3.25,-2.31,2.44,26.37,26.25,26.25,26.5,27.25,29.18,1017.18,48.77,0.0,0.0,0.0,0.0,0,2023,9,12,9,9,46,49,1.0,-50.0,8.5
8,3.25,-2.31,2.44,26.37,26.25,26.25,26.5,27.25,29.18,1017.22,48.79,0.0,0.0,0.0,0.0,0,2023,9,12,9,9,50,49,1.0,-51.0,8.5
9,3.25,-2.31,2.44,26.37,26.25,26.25,26.5,27.25,29.18,1017.22,48.79,0.0,0.0,0.0,0.0,0,2023,9,12,9,9,50,49,1.0,-51.0,8.5
10,3.25,-2.31,2.44,26.37,26.37,26.25,26.5,27.25,29.17,1017.21,48.8,0.0,0.0,0.0,0.0,0,2023,9,12,9,9,54,49,1.0,-51.0,9.25
11,3.25,-2.31,2.44,26.37,26.37,26.25,26.5,27.25,29.17,1017.21,48.8,0.0,0.0,0.0,0.0,0,2023,9,12,9,9,54,49,1.0,-51.0,9.25
12,3.25,-2.31,2.44,26.37,26.25,26.25,26.5,27.25,29.18,1017.2,48.81,0.0,0.0,0.0,0.0,0,2023,9,12,9,9,58,49,1.0,-51.0,8.75
13,3.25,-2.31,2.44,26.37,26.37,26.25,26.5,27.25,29.18,1017.2,48.81,0.0,0.0,0.0,0.0,0,2023,9,12,9,10,3,49,1.0,-51.0,8.5
14,3.25,-2.31,2.44,26.37,26.37,26.25,26.5,27.25,29.18,1017.2,48.81,0.0,0.0,0.0,0.0,0,2023,9,12,9,10,3,49,1.0,-51.0,8.5
15,3.25,-2.31,2.44,26.37,26.37,26.25,26.5,27.25,29.17,1017.2,48.81,0.0,0.0,0.0,0.0,0,2023,9,12,9,10,7,49,1.0,-46.0,8.5
16,-4.12,-73.25,15.31,26.37,26.37,26.25,26.5,27.37,29.17,1017.21,48.81,0.0,0.0,0.0,0.0,0,2023,9,12,9,10,11,49,1.0,-45.0,7.5
17,-2.19,-91.56,26.44,26.37,26.37,26.25,26.5,27.37,29.17,1017.23,48.81,0.0,0.0,0.0,0.0,0,2023,9,12,9,10,15,49,1.0,-47.0,7.5
18,-2.37,-91.19,25.31,26.37,26.37,26.25,26.5,27.37,29.17,1017.2,48.8,0.0,0.0,0.0,0.0,0,2023,9,12,9,10,19,49,1.0,-47.0,6.5
19,-1.56,-91.37,24.62,26.37,26.37,26.25,26.5,27.37,29.18,1017.21,48.79,0.0,0.0,0.0,0.0,0,2023,9,12,9,10,23,49,1.0,-46.0,7.25
20,-1.56,-91.37,24.62,26.37,26.37,26.25,26.5,27.37,29.18,1017.21,48.79,0.0,0.0,0.0,0.0,0,2023,9,12,9,10,23,49,1.0,-46.0,7.25
21,-1.56,-91.37,24.62,26.37,26.37,26.25,26.5,27.37,29.18,1017.22,48.79,0.0,0.0,0.0,0.0,0,2023,9,12,9,10,28,49,1.0,-46.0,7.75
22,-1.56,-91.37,24.62,26.37,26.37,26.25,26.5,27.37,29.18,1017.22,48.79,0.0,0.0,0.0,0.0,0,2023,9,12,9,10,28,49,1.0,-46.0,7.75
23,-1.56,-91.37,24.62,26.37,26.37,26.25,26.5,27.37,29.18,1017.22,48.76,0.0,0.0,0.0,0.0,0,2023,9,12,9,10,32,49,1.0,-47.0,9.0
24,-1.56,-91.37,24.62,26.37,26.37,26.25,26.5,27.37,29.18,1017.18,48.76,0.0,0.0,0.0,0.0,0,2023,9,12,9,10,36,49,1.0,-46.0,9.75
25,-1.56,-91.37,24.62,26.37,26.37,26.25,26.5,27.37,29.18,1017.21,48.76,0.0,0.0,0.0,0.0,0,2023,9,12,9,10,40,49,1.0,-46.0,9.75
26,-1.56,-91.37,24.62,26.37,26.37,26.25,26.5,27.37,29.18,1017.22,48.75,0.0,0.0,0.0,0.0,0,2023,9,12,9,10,44,49,1.0,-47.0,9.5
27,-1.56,-91.37,24.62,26.37,26.37,26.25,26.5,27.5,29.18,1017.21,48.75,0.0,0.0,0.0,0.0,0,2023,9,12,9,10,48,49,1.0,-47.0,9.5
28,-1.56,-91.37,24.62,26.37,26.37,26.25,26.5,27.5,29.18,1017.2,48.74,0.0,0.0,0.0,0.0,0,2023,9,12,9,10,53,49,1.0,-47.0,9.25
29,-1.56,-91.37,24.62,26.37,26.37,26.25,26.5,27.5,29.18,1017.2,48.74,0.0,0.0,0.0,0.0,0,2023,9,12,9,10,57,49,1.0,-46.0,10.0
30,-1.56,-91.37,24.62,26.37,26.37,26.25,26.5,27.5,29.18,1017.22,48.74,0.0,0.0,0.0,0.0,0,2023,9,12,9,11,1,49,1.0,-47.0,9.75
31,-1.56,-91.37,24.62,26.37,26.37,26.25,26.5,27.5,29.18,1017.21,48.74,0.0,0.0,0.0,0.0,0,2023,9,12,9,11,5,49,1.0,-47.0,9.75
32,-1.56,-91.37,24.62,26.37,26.37,26.25,26.5,27.5,29.18,1017.21,48.74,0.0,0.0,0.0,0.0,0,2023,9,12,9,11,5,49,1.0,-47.0,9.75
33,-1.56,-91.37,24.62,26.37,26.37,26.25,26.5,27.5,29.18,1017.21,48.74,0.0,0.0,0.0,0.0,0,2023,9,12,9,11,9,49,1.0,-47.0,9.75
34,-1.56,-91.37,24.62,26.37,26.37,26.25,26.5,27.5,29.18,1017.2,48.74,0.0,0.0,0.0,0.0,0,2023,9,12,9,11,13,49,1.0,-46.0,9.5
35,-1.56,-91.37,24.62,26.37,26.37,26.25,26.5,27.5,29.18,1017.2,48.74,0.0,0.0,0.0,0.0,0,2023,9,12,9,11,13,49,1.0,-46.0,9.5
36,-1.56,-91.37,24.62,26.37,26.37,26.25,26.5,27.62,29.18,1017.22,48.74,0.0,0.0,0.0,0.0,0,2023,9,12,9,11,18,49,1.0,-47.0,10.5
37,-1.56,-91.37,24.62,26.37,26.37,26.25,26.5,27.5,29.18,1017.22,48.73,0.0,0.0,0.0,0.0,0,2023,9,12,9,11,22,49,1.0,-48.0,9.75
38,-1.56,-91.37,24.62,26.37,26.37,26.25,26.5,27.5,29.18,1017.22,48.73,0.0,0.0,0.0,0.0,0,2023,9,12,9,11,22,49,1.0,-48.0,9.75
39,-1.56,-91.37,24.62,26.37,26.37,26.25,26.5,27.62,29.18,1017.22,48.73,0.0,0.0,0.0,0.0,0,2023,9,12,9,11,26,49,1.0,-48.0,10.25
40,-1.56,-91.37,24.62,26.37,26.37,26.25,26.5,27.62,29.18,1017.22,48.73,0.0,0.0,0.0,0.0,0,2023,9,12,9,11,26,49,1.0,-48.0,10.25
41,-1.56,-91.37,24.62,26.37,26.37,26.25,26.5,27.62,29.18,1017.22,48.73,0.0,0.0,0.0,0.0,0,2023,9,12,9,11,30,49,1.0,-46.0,10.75
42,-1.56,-91.37,24.62,26.37,26.37,26.25,26.5,27.62,29.18,1017.22,48.73,0.0,0.0,0.0,0.0,0,2023,9,12,9,11,30,49,1.0,-46.0,10.75
43,-1.56,-91.37,24.62,26.37,26.37,26.25,26.5,27.62,29.18,1017.23,48.73,0.0,0.0,0.0,0.0,0,2023,9,12,9,11,34,49,1.0,-47.0,10.25
44,-1.56,-91.37,24.62,26.37,26.37,26.25,26.5,27.62,29.18,1017.23,48.73,0.0,0.0,0.0,0.0,0,2023,9,12,9,11,34,49,1.0,-47.0,10.25
45,-1.56,-91.37,24.62,26.37,26.37,26.25,26.5,27.62,29.18,1017.24,48.72,0.0,0.0,0.0,0.0,0,2023,9,12,9,11,38,49,1.0,-48.0,10.0
46,-1.56,-91.37,24.62,26.37,26.25,26.25,26.5,27.62,29.19,1017.25,48.72,0.0,0.0,0.0,0.0,0,2023,9,12,9,11,43,49,1.0,-47.0,10.25
47,-1.56,-91.37,24.62,26.37,26.37,26.25,26.5,27.62,29.18,1017.24,48.72,0.0,0.0,0.0,0.0,0,2023,9,12,9,11,47,49,1.0,-47.0,10.0
48,-1.56,-91.37,24.62,26.37,26.37,26.25,26.5,27.62,29.18,1017.24,48.72,0.0,0.0,0.0,0.0,0,2023,9,12,9,11,47,49,1.0,-47.0,10.0
49,-1.56,-91.37,24.62,26.37,26.37,26.25,26.5,27.62,29.18,1017.23,48.71,0.0,0.0,0.0,0.0,0,2023,9,12,9,11,51,49,1.0,-48.0,9.5
50,-1.56,-91.37,24.62,26.37,26.37,26.25,26.5,27.62,29.18,1017.2,48.71,0.0,0.0,0.0,0.0,0,2023,9,12,9,11,55,49,1.0,-47.0,9.75
51,-1.56,-91.37,24.62,26.37,26.37,26.25,26.5,27.62,29.19,1017.26,48.7,0.0,0.0,0.0,0.0,0,2023,9,12,9,11,59,49,1.0,-47.0,9.75
52,-1.56,-91.37,24.62,26.37,26.37,26.25,26.5,27.62,29.18,1017.24,48.69,0.0,0.0,0.0,0.0,0,2023,9,12,9,12,3,49,1.0,-47.0,10.5
53,-1.56,-91.37,24.62,26.37,26.37,26.25,26.5,27.62,29.19,1017.25,48.7,0.0,0.0,0.0,0.0,0,2023,9,12,9,12,8,49,1.0,-45.0,9.5
54,-1.56,-91.37,24.62,26.37,26.37,26.25,26.5,27.62,29.19,1017.25,48.7,0.0,0.0,0.0,0.0,0,2023,9,12,9,12,8,49,1.0,-45.0,9.5
55,-1.56,-91.37,24.62,26.37,26.37,26.25,26.5,27.62,29.18,1017.24,48.67,0.0,0.0,0.0,0.0,0,2023,9,12,9,12,12,49,1.0,-45.0,9.75
56,-1.56,-91.37,24.62,26.37,26.37,26.25,26.5,27.62,29.18,1017.24,48.67,0.0,0.0,0.0,0.0,0,2023,9,12,9,12,12,49,1.0,-45.0,9.75
57,-1.56,-91.37,24.62,26.37,26.37,26.25,26.5,27.62,29.18,1017.21,48.66,0.0,0.0,0.0,0.0,0,2023,9,12,9,12,16,49,1.0,-47.0,9.5
58,-1.56,-91.37,24.62,26.37,26.37,26.25,26.5,27.62,29.18,1017.21,48.66,0.0,0.0,0.0,0.0,0,2023,9,12,9,12,16,49,1.0,-47.0,9.5
59,-1.56,-91.37,24.62,26.37,26.37,26.25,26.5,27.62,29.18,1017.24,48.66,0.0,0.0,0.0,0.0,0,2023,9,12,9,12,20,49,1.0,-46.0,9.5
60,-1.56,-91.37,24.62,26.37,26.37,26.25,26.5,27.62,29.18,1017.24,48.66,0.0,0.0,0.0,0.0,0,2023,9,12,9,12,20,49,1.0,-46.0,9.5
61,-1.56,-91.37,24.62,26.37,26.37,26.25,26.5,27.62,29.18,1017.25,48.67,0.0,0.0,0.0,0.0,0,2023,9,12,9,12,24,49,1.0,-46.0,10.0
62,-1.56,-91.37,24.62,26.37,26.37,26.25,26.5,27.62,29.18,1017.25,48.67,0.0,0.0,0.0,0.0,0,2023,9,12,9,12,24,49,1.0,-46.0,10.0
63,-1.56,-91.37,24.62,26.37,26.37,26.25,26.5,27.62,29.18,1017.26,48.67,0.0,0.0,0.0,0.0,0,2023,9,12,9,12,28,49,1.0,-46.0,10.5
64,-1.56,-91.37,24.62,26.37,26.37,26.25,26.5,27.62,29.18,1017.26,48.67,0.0,0.0,0.0,0.0,0,2023,9,12,9,12,28,49,1.0,-46.0,10.5
65,-1.56,-91.37,24.62,26.37,26.37,26.25,26.5,27.62,29.17,1017.24,48.67,0.0,0.0,0.0,0.0,0,2023,9,12,9,12,33,49,1.0,-47.0,9.75
66,-1.56,-91.37,24.62,26.37,26.37,26.25,26.5,27.62,29.17,1017.24,48.67,0.0,0.0,0.0,0.0,0,2023,9,12,9,12,33,49,1.0,-47.0,9.75
67,-1.56,-91.37,24.62,26.37,26.37,26.25,26.5,27.62,29.18,1017.27,48.66,0.0,0.0,0.0,0.0,0,2023,9,12,9,12,37,49,1.0,-46.0,9.25
68,-1.56,-91.37,24.62,26.37,26.37,26.25,26.5,27.62,29.18,1017.27,48.66,0.0,0.0,0.0,0.0,0,2023,9,12,9,12,37,49,1.0,-46.0,9.25
69,-1.56,-91.37,24.62,26.37,26.37,26.25,26.5,27.62,29.18,1017.25,48.66,0.0,0.0,0.0,0.0,0,2023,9,12,9,12,41,49,1.0,-46.0,9.25
70,-1.56,-91.37,24.62,26.37,26.37,26.25,26.5,27.62,29.18,1017.25,48.66,0.0,0.0,0.0,0.0,0,2023,9,12,9,12,41,49,1.0,-46.0,9.25
71,-1.56,-91.37,24.62,26.37,26.37,26.25,26.5,27.62,29.18,1017.24,48.66,0.0,0.0,0.0,0.0,0,2023,9,12,9,12,45,49,1.0,-45.0,9.75
72,-1.56,-91.37,24.62,26.37,26.37,26.25,26.5,27.62,29.18,1017.25,48.66,0.0,0.0,0.0,0.0,0,2023,9,12,9,12,49,49,1.0,-46.0,10.0
73,-1.56,-91.37,24.62,26.37,26.37,26.25,26.5,27.62,29.18,1017.25,48.66,0.0,0.0,0.0,0.0,0,2023,9,12,9,12,49,49,1.0,-46.0,10.0
74,-1.56,-91.37,24.62,26.37,26.37,26.25,26.5,27.62,29.18,1017.24,48.66,0.0,0.0,0.0,0.0,0,2023,9,12,9,12,53,49,1.0,-46.0,9.5
75,-1.56,-91.37,24.62,26.37,26.37,26.25,26.5,27.75,29.18,1017.25,48.67,0.0,0.0,0.0,0.0,0,2023,9,12,9,12,58,49,1.0,-45.0,9.5
76,-1.56,-91.37,24.62,26.5,26.37,26.25,26.5,27.75,29.17,1017.25,48.66,0.0,0.0,0.0,0.0,0,2023,9,12,9,13,2,49,1.0,-47.0,9.25
77,-1.56,-91.37,24.62,26.37,26.37,26.25,26.5,27.75,29.18,1017.27,48.66,0.0,0.0,0.0,0.0,0,2023,9,12,9,13,6,49,1.0,-46.0,9.5
78,-1.56,-91.37,24.62,26.37,26.37,26.25,26.5,27.62,29.18,1017.25,48.66,0.0,0.0,0.0,0.0,0,2023,9,12,9,13,10,49,1.0,-46.0,9.5
79,-1.56,-91.37,24.62,26.5,26.37,26.25,26.5,27.62,29.18,1017.29,48.66,0.0,0.0,0.0,0.0,0,2023,9,12,9,13,14,49,1.0,-45.0,9.25
80,-1.56,-91.37,24.62,26.5,26.37,26.25,26.5,27.75,29.17,1017.28,48.65,0.0,0.0,0.0,0.0,0,2023,9,12,9,13,18,49,1.0,-47.0,9.75
81,-1.56,-91.37,24.62,26.5,26.37,26.25,26.5,27.75,29.17,1017.28,48.65,0.0,0.0,0.0,0.0,0,2023,9,12,9,13,18,49,1.0,-47.0,9.75
82,-1.56,-91.37,24.62,26.37,26.37,26.25,26.5,27.62,29.17,1017.27,48.65,0.0,0.0,0.0,0.0,0,2023,9,12,9,13,23,49,1.0,-46.0,10.75
83,-1.56,-91.37,24.62,26.37,26.37,26.25,26.5,27.62,29.17,1017.27,48.65,0.0,0.0,0.0,0.0,0,2023,9,12,9,13,23,49,1.0,-46.0,10.75
84,-1.56,-91.37,24.62,26.5,26.37,26.25,26.5,27.62,29.18,1017.28,48.66,0.0,0.0,0.0,0.0,0,2023,9,12,9,13,27,49,1.0,-46.0,10.5
85,-1.56,-91.37,24.62,26.37,26.37,26.25,26.5,27.62,29.17,1017.25,48.66,0.0,0.0,0.0,0.0,0,2023,9,12,9,13,31,49,1.0,-46.0,10.75
86,-1.56,-91.37,24.62,26.37,26.37,26.25,26.5,27.62,29.17,1017.25,48.66,0.0,0.0,0.0,0.0,0,2023,9,12,9,13,31,49,1.0,-46.0,10.75
87,-1.56,-91.37,24.62,26.37,26.37,26.25,26.5,27.75,29.17,1017.26,48.66,0.0,0.0,0.0,0.0,0,2023,9,12,9,13,35,49,1.0,-48.0,10.0
88,-1.56,-91.37,24.62,26.5,26.37,26.25,26.5,27.62,29.17,1017.25,48.66,0.0,0.0,0.0,0.0,0,2023,9,12,9,13,39,49,1.0,-46.0,10.25
89,-1.56,-91.37,24.62,26.5,26.37,26.25,26.5,27.62,29.17,1017.25,48.66,0.0,0.0,0.0,0.0,0,2023,9,12,9,13,39,49,1.0,-46.0,10.25
90,-1.56,-91.37,24.62,26.37,26.37,26.25,26.5,27.62,29.17,1017.25,48.67,0.0,0.0,0.0,0.0,0,2023,9,12,9,13,43,49,1.0,-46.0,11.5
91,-1.56,-91.37,24.62,26.37,26.37,26.25,26.5,27.62,29.17,1017.25,48.67,0.0,0.0,0.0,0.0,0,2023,9,12,9,13,43,49,1.0,-46.0,11.5
92,-1.56,-91.37,24.62,26.37,26.37,26.25,26.5,27.62,29.17,1017.3,48.68,0.0,0.0,0.0,0.0,0,2023,9,12,9,13,48,49,1.0,-47.0,10.5
93,-1.56,-91.37,24.62,26.37,26.37,26.25,26.5,27.62,29.17,1017.3,48.68,0.0,0.0,0.0,0.0,0,2023,9,12,9,13,48,49,1.0,-47.0,10.5
94,-1.56,-91.37,24.62,26.37,26.37,26.25,26.5,27.62,29.17,1017.24,48.68,0.0,0.0,0.0,0.0,0,2023,9,12,9,13,52,49,1.0,-46.0,10.25
95,-1.56,-91.37,24.62,26.37,26.37,26.25,26.5,27.62,29.17,1017.24,48.68,0.0,0.0,0.0,0.0,0,2023,9,12,9,13,52,49,1.0,-46.0,10.25
96,-1.56,-91.37,24.62,26.37,26.37,26.25,26.5,27.62,29.17,1017.27,48.7,0.0,0.0,0.0,0.0,0,2023,9,12,9,13,56,49,1.0,-46.0,9.5
97,-1.56,-91.37,24.62,26.5,26.37,26.25,26.5,27.75,29.17,1017.26,48.7,0.0,0.0,0.0,0.0,0,2023,9,12,9,14,0,49,1.0,-47.0,10.5
98,-1.56,-91.37,24.62,26.37,26.37,26.25,26.5,27.75,29.17,1017.29,48.7,0.0,0.0,0.0,0.0,0,2023,9,12,9,14,4,49,1.0,-46.0,10.75
99,-1.56,-91.37,24.62,26.37,26.37,26.25,26.5,27.75,29.17,1017.29,48.71,0.0,0.0,0.0,0.0,0,2023,9,12,9,14,8,49,1.0,-46.0,10.5
100,-1.56,-91.37,24.62,26.37,26.37,26.25,26.5,27.75,29.16,1017.24,48.69,0.0,0.0,0.0,0.0,0,2023,9,12,9,14,13,49,1.0,-45.0,10.75
101,-1.56,-91.37,24.62,26.37,26.37,26.25,26.5,27.75,29.17,1017.3,48.71,0.0,0.0,0.0,0.0,0,2023,9,12,9,14,17,49,1.0,-46.0,10.5
102,-1.56,-91.37,24.62,26.37,26.37,26.25,26.5,27.75,29.17,1017.27,48.71,0.0,0.0,0.0,0.0,0,2023,9,12,9,14,21,49,1.0,-47.0,11.0
103,-1.56,-91.37,24.62,26.37,26.37,26.25,26.5,27.75,29.16,1017.28,48.72,0.0,0.0,0.0,0.0,0,2023,9,12,9,14,25,49,1.0,-47.0,10.25
104,-1.56,-91.37,24.62,26.37,26.37,26.25,26.5,27.75,29.17,1017.27,48.72,0.0,0.0,0.0,0.0,0,2023,9,12,9,14,29,49,1.0,-46.0,10.75
105,-1.56,-91.37,24.62,26.37,26.37,26.25,26.5,27.75,29.17,1017.27,48.72,0.0,0.0,0.0,0.0,0,2023,9,12,9,14,29,49,1.0,-46.0,10.75
106,-1.56,-91.37,24.62,26.37,26.37,26.25,26.5,27.75,29.16,1017.27,48.73,0.0,0.0,0.0,0.0,0,2023,9,12,9,14,33,49,1.0,-46.0,9.75
107,-1.56,-91.37,24.62,26.37,26.37,26.25,26.5,27.75,29.16,1017.27,48.73,0.0,0.0,0.0,0.0,0,2023,9,12,9,14,33,49,1.0,-46.0,9.75
108,-1.56,-91.37,24.62,26.37,26.37,26.25,26.5,27.75,29.16,1017.25,48.72,0.0,0.0,0.0,0.0,0,2023,9,12,9,14,38,49,1.0,-47.0,11.25
109,-1.56,-91.37,24.62,26.37,26.37,26.25,26.5,27.75,29.16,1017.27,48.72,0.0,0.0,0.0,0.0,0,2023,9,12,9,14,42,49,1.0,-46.0,11.0
110,-1.56,-91.37,24.62,26.37,26.37,26.25,26.5,27.75,29.16,1017.27,48.72,0.0,0.0,0.0,0.0,0,2023,9,12,9,14,42,49,1.0,-46.0,11.0
111,-1.56,-91.37,24.62,26.37,26.37,26.25,26.5,27.75,29.16,1017.28,48.73,0.0,0.0,0.0,0.0,0,2023,9,12,9,14,46,49,1.0,-45.0,10.5
112,-1.56,-91.37,24.62,26.37,26.37,26.25,26.5,27.75,29.16,1017.28,48.73,0.0,0.0,0.0,0.0,0,2023,9,12,9,14,46,49,1.0,-45.0,10.5
113,-1.56,-91.37,24.62,26.37,26.37,26.25,26.5,27.75,29.16,1017.3,48.73,0.0,0.0,0.0,0.0,0,2023,9,12,9,14,50,49,1.0,-46.0,10.5
114,-1.56,-91.37,24.62,26.37,26.37,26.25,26.5,27.75,29.15,1017.26,48.72,0.0,0.0,0.0,0.0,0,2023,9,12,9,14,54,49,1.0,-47.0,11.0
115,-1.56,-91.37,24.62,26.37,26.37,26.25,26.5,27.75,29.16,1017.28,48.72,0.0,0.0,0.0,0.0,0,2023,9,12,9,14,58,49,1.0,-46.0,10.75
116,-1.56,-91.37,24.62,26.37,26.37,26.25,26.5,27.75,29.16,1017.27,48.72,0.0,0.0,0.0,0.0,0,2023,9,12,9,15,3,49,1.0,-46.0,9.25
117,-1.56,-91.37,24.62,26.37,26.37,26.25,26.5,27.75,29.15,1017.28,48.73,0.0,0.0,0.0,0.0,0,2023,9,12,9,15,7,49,1.0,-46.0,10.5
118,-1.56,-91.37,24.62,26.37,26.37,26.25,26.5,27.75,29.15,1017.29,48.76,0.0,0.0,0.0,0.0,0,2023,9,12,9,15,11,49,1.0,-46.0,10.0
119,-1.56,-91.37,24.62,26.37,26.37,26.25,26.5,27.75,29.15,1017.29,48.76,0.0,0.0,0.0,0.0,0,2023,9,12,9,15,15,49,1.0,-45.0,11.5
120,-1.56,-91.37,24.62,26.37,26.37,26.25,26.5,27.75,29.15,1017.26,48.78,0.0,0.0,0.0,0.0,0,2023,9,12,9,15,19,49,1.0,-48.0,11.75
121,-1.56,-91.37,24.62,26.37,26.37,26.25,26.5,27.75,29.15,1017.3,48.81,0.0,0.0,0.0,0.0,0,2023,9,12,9,15,23,49,1.0,-47.0,10.5
122,-1.56,-91.37,24.62,26.37,26.37,26.25,26.5,27.75,29.15,1017.3,48.81,0.0,0.0,0.0,0.0,0,2023,9,12,9,15,23,49,1.0,-47.0,10.5
123,-1.56,-91.37,24.62,26.5,26.37,26.25,26.5,27.75,29.15,1017.28,48.82,0.0,0.0,0.0,0.0,0,2023,9,12,9,15,28,49,1.0,-47.0,11.25
124,-1.56,-91.37,24.62,26.37,26.37,26.25,26.5,27.75,29.15,1017.28,48.82,0.0,0.0,0.0,0.0,0,2023,9,12,9,15,32,49,1.0,-48.0,11.0
125,-1.56,-91.37,24.62,26.37,26.37,26.25,26.5,27.75,29.15,1017.28,48.82,0.0,0.0,0.0,0.0,0,2023,9,12,9,15,32,49,1.0,-48.0,11.0
126,-1.56,-91.37,24.62,26.37,26.37,26.25,26.5,27.75,29.15,1017.28,48.83,0.0,0.0,0.0,0.0,0,2023,9,12,9,15,36,49,1.0,-46.0,11.5
127,-1.56,-91.37,24.62,26.37,26.37,26.25,26.5,27.75,29.15,1017.28,48.83,0.0,0.0,0.0,0.0,0,2023,9,12,9,15,36,49,1.0,-46.0,11.5
128,-1.56,-91.37,24.62,26.37,26.37,26.25,26.5,27.75,29.15,1017.28,48.83,0.0,0.0,0.0,0.0,0,2023,9,12,9,15,40,49,1.0,-46.0,12.0
129,-1.56,-91.37,24.62,26.37,26.37,26.25,26.5,27.75,29.15,1017.28,48.83,0.0,0.0,0.0,0.0,0,2023,9,12,9,15,40,49,1.0,-46.0,12.0
130,-1.56,-91.37,24.62,26.37,26.37,26.25,26.5,27.75,29.15,1017.28,48.84,0.0,0.0,0.0,0.0,0,2023,9,12,9,15,44,49,1.0,-46.0,11.75
131,-1.56,-91.37,24.62,26.37,26.37,26.25,26.5,27.75,29.15,1017.28,48.84,0.0,0.0,0.0,0.0,0,2023,9,12,9,15,44,49,1.0,-46.0,11.75
132,-1.56,-91.37,24.62,26.37,26.37,26.25,26.37,27.75,29.15,1017.28,48.84,0.0,0.0,0.0,0.0,0,2023,9,12,9,15,48,49,1.0,-47.0,11.5
133,-1.56,-91.37,24.62,26.37,26.37,26.25,26.5,27.75,29.14,1017.24,48.86,0.0,0.0,0.0,0.0,0,2023,9,12,9,15,53,49,1.0,-46.0,11.25
134,-1.56,-91.37,24.62,26.37,26.37,26.25,26.37,27.75,29.15,1017.27,48.85,0.0,0.0,0.0,0.0,0,2023,9,12,9,15,57,49,1.0,-46.0,11.25
135,-1.56,-91.37,24.62,26.37,26.37,26.25,26.5,27.75,29.14,1017.26,48.84,0.0,0.0,0.0,0.0,0,2023,9,12,9,16,1,49,1.0,-47.0,11.0
136,-1.56,-91.37,24.62,26.37,26.37,26.25,26.5,27.75,29.15,1017.28,48.84,0.0,0.0,0.0,0.0,0,2023,9,12,9,16,5,49,1.0,-46.0,10.75
137,-1.56,-91.37,24.62,26.37,26.37,26.25,26.5,27.75,29.15,1017.28,48.84,0.0,0.0,0.0,0.0,0,2023,9,12,9,16,5,49,1.0,-46.0,10.75
138,-1.56,-91.37,24.62,26.37,26.37,26.25,26.5,27.87,29.15,1017.25,48.85,0.0,0.0,0.0,0.0,0,2023,9,12,9,16,9,49,1.0,-46.0,11.25
139,-1.56,-91.37,24.62,26.37,26.37,26.25,26.5,27.75,29.14,1017.27,48.85,0.0,0.0,0.0,0.0,0,2023,9,12,9,16,13,49,1.0,-45.0,11.25
140,-1.56,-91.37,24.62,26.37,26.37,26.25,26.5,27.87,29.14,1017.23,48.84,0.0,0.0,0.0,0.0,0,2023,9,12,9,16,18,49,1.0,-47.0,11.0
141,-1.56,-91.37,24.62,26.37,26.37,26.25,26.5,27.87,29.15,1017.24,48.85,0.0,0.0,0.0,0.0,0,2023,9,12,9,16,22,49,1.0,-46.0,9.5
142,-1.56,-91.37,24.62,26.37,26.37,26.25,26.5,27.87,29.15,1017.24,48.85,0.0,0.0,0.0,0.0,0,2023,9,12,9,16,22,49,1.0,-46.0,9.5
143,-1.56,-91.37,24.62,26.37,26.37,26.25,26.5,27.87,29.14,1017.26,48.8,0.0,0.0,0.0,0.0,0,2023,9,12,9,16,26,49,1.0,-47.0,10.25
144,-1.56,-91.37,24.62,26.37,26.37,26.25,26.5,27.87,29.14,1017.26,48.8,0.0,0.0,0.0,0.0,0,2023,9,12,9,16,26,49,1.0,-47.0,10.25
